[
  {
    "code": "PAN-ARCOS-DORADOS-PANAMA-MARBELLA-",
    "name": "ARCOS DORADOS PANAMA MARBELLA 101",
    "address": "Lat: 8.98214773, Long: -79.5199474, MARBELLA, Panamá, Panama Oeste, Panama, 0000,",
    "lat": 8.98214773,
    "lng": -79.5199474,
    "site_type": "retail",
    "order_id_fm": 20459,
    "otc_usd": 500,
    "mrc60_usd": 1700
  },
  {
    "code": "PAN-PAN-106-RESTAURANTE",
    "name": "PAN 106 - Restaurante",
    "address": "Calle Ernesto Cordoba, Villa Zaita Edificio P.H. Plaza Zaita, Ave Transistmica, Panamá, Panama, Panama, 0000,",
    "lat": null,
    "lng": null,
    "site_type": "retail",
    "order_id_fm": 20457,
    "otc_usd": 500,
    "mrc60_usd": 1700
  },
  {
    "code": "PAN-PAN-112-RESTAURANTE",
    "name": "PAN-112-Restaurante",
    "address": "Lat: 8.996363006, Long: -79.51197436, Av. Dr. Belisario Porras 4802, Panamá, Provincia de Panamá, Panamá, Panama Oeste, Panama, 0000,",
    "lat": 8.996363006,
    "lng": -79.51197436,
    "site_type": "retail",
    "order_id_fm": 20458,
    "otc_usd": 500,
    "mrc60_usd": 1700
  },
  {
    "code": "PAN-P13",
    "name": "PANAMA   P13 PENONOME ESTE Restaurante",
    "address": "Lat 8.5139007037 Long -80.3491670324 Penonome, Carretera Interamericana al lado del Super Xtra, Penonomé, Cocle, Panama, NA",
    "lat": 8.5139007037,
    "lng": -80.3491670324,
    "site_type": "retail",
    "order_id_fm": 20491,
    "otc_usd": 500,
    "mrc60_usd": 1700
  },
  {
    "code": "PAN-P05",
    "name": "PANAMA  P05 EL DORADO CDP",
    "address": "Lat 9.0071235011 Long -79.5339674459 Vía Ricardo J. Alfaro, Tumba Muerto, Panamá, Panama, Panama, NA",
    "lat": 9.0071235011,
    "lng": -79.5339674459,
    "site_type": "retail",
    "order_id_fm": 20711,
    "otc_usd": 500,
    "mrc60_usd": 1700
  },
  {
    "code": "PAN-P07",
    "name": "PANAMA  P07 PLAZA LA MITRA Restaurante",
    "address": "Lat 8.8620654102 Long -79.7929736747 Sta. Isabel 55-1, Plaza La Mitra, La Chorrera, Panama Oeste, Panama, NA",
    "lat": 8.8620654102,
    "lng": -79.7929736747,
    "site_type": "retail",
    "order_id_fm": 20490,
    "otc_usd": 500,
    "mrc60_usd": 1700
  },
  {
    "code": "PAN-P17",
    "name": "PANAMA  P17 ALBROOK FS Restaurante",
    "address": "Lat 8.9763093338 Long -79.55361845 Estacionamientos de Albrook Mall, Panama City, Panama, Panama, NA",
    "lat": 8.9763093338,
    "lng": -79.55361845,
    "site_type": "retail",
    "order_id_fm": 20492,
    "otc_usd": 500,
    "mrc60_usd": 1700
  },
  {
    "code": "PAN-P20",
    "name": "PANAMA  P20 MEGAMALL FS Restaurante",
    "address": "Lat 9.1015525016 Long -79.3497974217 Carretera Panamericana, Borde Centro Comercial Megamall, Panama City, Panama, Panama, NA",
    "lat": 9.1015525016,
    "lng": -79.3497974217,
    "site_type": "retail",
    "order_id_fm": 20493,
    "otc_usd": 500,
    "mrc60_usd": 1700
  },
  {
    "code": "PAN-P25",
    "name": "PANAMA  P25 VILLA LUCRE Restaurante",
    "address": "Lat 9.0373528458 Long -79.4819674215 Entrada del Centro Comercial Villa Lucre, San Miguelito, Panama, Panama, NA",
    "lat": 9.0373528458,
    "lng": -79.4819674215,
    "site_type": "retail",
    "order_id_fm": 20472,
    "otc_usd": 500,
    "mrc60_usd": 1700
  },
  {
    "code": "PAN-P34",
    "name": "PANAMA  P34 CALIDONIA Restaurante",
    "address": "Lat 8.9652667397 Long -79.5401398324 Calidonia, frente al almacén La Pantera Rosa, Panamá, Panama, Panama, NA",
    "lat": 8.9652667397,
    "lng": -79.5401398324,
    "site_type": "retail",
    "order_id_fm": 20489,
    "otc_usd": 500,
    "mrc60_usd": 1700
  },
  {
    "code": "PAN-P37",
    "name": "PANAMA  P37 JUAN DIAZ Restaurante",
    "address": "Lat 9.0450841904 Long -79.4504385036 Juan Díaz, frente al Centro Comercial Los Pueblos, Panamá, Panama, Panama, NA",
    "lat": 9.0450841904,
    "lng": -79.4504385036,
    "site_type": "retail",
    "order_id_fm": 20475,
    "otc_usd": 500,
    "mrc60_usd": 1700
  },
  {
    "code": "PAN-P73",
    "name": "PANAMA  P73 VACAMONTE Restaurante",
    "address": "Lat 8.9209246461 Long -79.6966615837 Camino al Puerto de Vacamonte, Vacamonte, Panama Oeste, Panama, NA",
    "lat": 8.9209246461,
    "lng": -79.6966615837,
    "site_type": "retail",
    "order_id_fm": 20504,
    "otc_usd": 500,
    "mrc60_usd": 1700
  },
  {
    "code": "PAN-P76",
    "name": "PANAMA  P76 LA CABIMA  Restaurante",
    "address": "Lat 9.1091073637 Long -79.5370692692 Carretera Transístmica, Minimall La Cabima, Panamá, Panama, Panama, NA",
    "lat": 9.1091073637,
    "lng": -79.5370692692,
    "site_type": "retail",
    "order_id_fm": 20505,
    "otc_usd": 500,
    "mrc60_usd": 1700
  },
  {
    "code": "PAN-P82",
    "name": "PANAMA  P82 CHANGUINOLA Restaurante",
    "address": "Lat 9.449507518 Long -82.5192691195 Av. 17 de Abril, Changuinola Centro, Changuinola, Bocas del Toro, Panama, NA",
    "lat": 9.449507518,
    "lng": -82.5192691195,
    "site_type": "retail",
    "order_id_fm": 20481,
    "otc_usd": 500,
    "mrc60_usd": 1700
  },
  {
    "code": "PAN-P99",
    "name": "PANAMA  P99 TOWN CENTER- COSTA DEL ESTE Restaurante",
    "address": "Lat 9.0140366611 Long -79.4647411718 Centro Comercial Town Center, local R3-406, nivel +100 Sur, Costa del Este, Panamá, Panama, Panama, NA",
    "lat": 9.0140366611,
    "lng": -79.4647411718,
    "site_type": "retail",
    "order_id_fm": 20485,
    "otc_usd": 500,
    "mrc60_usd": 1700
  },
  {
    "code": "PAN-PANAMA-100-SAN-VICENTE-CHILIBR",
    "name": "PANAMA 100  SAN VICENTE CHILIBRE Restaurante",
    "address": "Lat 9.1225539247 Long -79.5944859185 Carretera Transístmica Av. Boyd Roosevelt, Chilibre, Plaza San Vicente, Panamá, Panama, Panama, NA",
    "lat": 9.1225539247,
    "lng": -79.5944859185,
    "site_type": "retail",
    "order_id_fm": 20456,
    "otc_usd": 500,
    "mrc60_usd": 1700
  },
  {
    "code": "PAN-PANAMA-CENTRO-DE-DATOS",
    "name": "PANAMA CENTRO DE DATOS",
    "address": "Piso 41 , Financial Park Tower, Panamá, Panama Oeste, Panama, 0000,",
    "lat": null,
    "lng": null,
    "site_type": "retail",
    "order_id_fm": 19012,
    "otc_usd": 500,
    "mrc60_usd": 1700
  },
  {
    "code": "PAN-PANAMA-LABORATORIO-SPARE-SPART",
    "name": "PANAMA LABORATORIO -SPARE SPART",
    "address": "Boulevard Costa del Este, PISO 41 , Panamá, Panama Oeste, Panama, 0000,",
    "lat": null,
    "lng": null,
    "site_type": "retail",
    "order_id_fm": 19444,
    "otc_usd": 500,
    "mrc60_usd": 1700
  },
  {
    "code": "PAN-PANAMA-OESTE-P29-PLAZA-LA-MARQ",
    "name": "PANAMA OESTE P29 PLAZA LA MARQUESA Restaurante",
    "address": "Lat 8.9522543466 Long -79.6589547324 Centro Comerial La Marquesa Local Franquicia PB-1, Arraiján, Panama, Panama, NA",
    "lat": 8.9522543466,
    "lng": -79.6589547324,
    "site_type": "retail",
    "order_id_fm": 20474,
    "otc_usd": 500,
    "mrc60_usd": 1700
  },
  {
    "code": "PAN-PANAMA-OESTE-P57-CORONADO-REST",
    "name": "PANAMA OESTE P57 CORONADO Restaurante",
    "address": "Lat 8.5427225465 Long -79.9140345477 Coronado Mall, Local 11, Carretera Interamericana esquina Ave. Roberto Eisenman, Las Lajas, Panama Oeste, Panama, NA",
    "lat": 8.5427225465,
    "lng": -79.9140345477,
    "site_type": "retail",
    "order_id_fm": 20479,
    "otc_usd": 500,
    "mrc60_usd": 1700
  },
  {
    "code": "PAN-PANAMA-OESTE-P62-PENONOME-REST",
    "name": "PANAMA OESTE P62 PENONOME Restaurante",
    "address": "Lat 8.5083392065 Long -80.3620370236 Centro Comercial Iguana Mall, 2da etapa, Penonomé, Cocle, Panama, NA",
    "lat": 8.5083392065,
    "lng": -80.3620370236,
    "site_type": "retail",
    "order_id_fm": 20446,
    "otc_usd": 500,
    "mrc60_usd": 1700
  },
  {
    "code": "PAN-PANAMA-OESTE-P66-WESTLAND-MALL",
    "name": "PANAMA OESTE P66  WESTLAND MALL FC Restaurante",
    "address": "Lat 8.9223148614 Long -79.7052881037 Centro Comercial Westland Mall, Foodcourt Local PA-N1, Vista Alegre, Panama Oeste, Panama, NA",
    "lat": 8.9223148614,
    "lng": -79.7052881037,
    "site_type": "retail",
    "order_id_fm": 20501,
    "otc_usd": 500,
    "mrc60_usd": 1700
  },
  {
    "code": "PAN-PANAMA-OESTE-P70-WESTLAND-MALL",
    "name": "PANAMA OESTE P70 WESTLAND MALL FS Restaurante",
    "address": "Lat 8.91968279 Long -79.7063128287 Estacionamientos del Centro Comercial Westland Mall, Vista Alegre, Panama Oeste, Panama, NA",
    "lat": 8.91968279,
    "lng": -79.7063128287,
    "site_type": "retail",
    "order_id_fm": 20484,
    "otc_usd": 500,
    "mrc60_usd": 1700
  },
  {
    "code": "PAN-PANAMA-OESTE-P71-LAESPIGA-REST",
    "name": "PANAMA OESTE P71 LAESPIGA Restaurante",
    "address": "Lat 8.8534284587 Long -79.8122996395 Vía Interamericana, La Espiga, La Chorrera, frente a FEMSA, La Chorrera, Panama Oeste, Panama, NA",
    "lat": 8.8534284587,
    "lng": -79.8122996395,
    "site_type": "retail",
    "order_id_fm": 20496,
    "otc_usd": 500,
    "mrc60_usd": 1700
  },
  {
    "code": "PAN-PANAMA-OESTE-P79-COSTA-VERDE-R",
    "name": "PANAMA OESTE P79 COSTA VERDE Restaurante",
    "address": "Lat 8.8934420223 Long -79.7515606634 Centro Comercial Costa Verde, Locales 5R, 6R y 106R, La Chorrera, Panama Oeste, Panama, NA",
    "lat": 8.8934420223,
    "lng": -79.7515606634,
    "site_type": "retail",
    "order_id_fm": 20480,
    "otc_usd": 500,
    "mrc60_usd": 1700
  },
  {
    "code": "PAN-PANAMA-OESTE-P92-LAS-ANCLAS-MA",
    "name": "PANAMA OESTE P92 LAS ANCLAS MALL. Restaurante",
    "address": "Lat 8.8929409242 Long -79.7628893644 Centro Comercial Las Anclas Mall, local R14, La Chorrera, Panama Oeste, Panama, NA",
    "lat": 8.8929409242,
    "lng": -79.7628893644,
    "site_type": "retail",
    "order_id_fm": 20483,
    "otc_usd": 500,
    "mrc60_usd": 1700
  },
  {
    "code": "PAN-P04",
    "name": "PANAMA P04 CALLE 50 Restaurante",
    "address": "Lat 8.9906590405 Long -79.5108123679 Entrando por Calle Belen, Calle 50, Panamá, Panama, Panama, NA",
    "lat": 8.9906590405,
    "lng": -79.5108123679,
    "site_type": "retail",
    "order_id_fm": 20461,
    "otc_usd": 500,
    "mrc60_usd": 1700
  },
  {
    "code": "PAN-P06",
    "name": "PANAMA P06 VIA ESPANA Restaurante",
    "address": "Lat 8.9836360301 Long -79.526765717 Las Arcadas del Hotel El Panamá, Panama City, Panama, Panama, NA",
    "lat": 8.9836360301,
    "lng": -79.526765717,
    "site_type": "retail",
    "order_id_fm": 20463,
    "otc_usd": 500,
    "mrc60_usd": 1700
  },
  {
    "code": "PAN-P08",
    "name": "PANAMA P08 LA LOMA RESTAURANTE",
    "address": "Lat 9.0027443278 Long -79.5165292747 Vía España, junto al Hospital San Fernando, Panamá, Panama, Panama, NA",
    "lat": 9.0027443278,
    "lng": -79.5165292747,
    "site_type": "retail",
    "order_id_fm": 20464,
    "otc_usd": 500,
    "mrc60_usd": 1700
  },
  {
    "code": "PAN-P09",
    "name": "PANAMA P09 BALBOA  PAITILLA Restaurante",
    "address": "Lat 8.9789569226 Long -79.5163565612 Ave. Balboa, frente al Hospital Paitilla, Panamá, Panama, Panama, NA",
    "lat": 8.9789569226,
    "lng": -79.5163565612,
    "site_type": "retail",
    "order_id_fm": 20465,
    "otc_usd": 500,
    "mrc60_usd": 1700
  },
  {
    "code": "PAN-P10",
    "name": "PANAMA P10 PEDREGAL Restaurante",
    "address": "Lat 9.0572136776 Long -79.4338442747 Juan Díaz y Vía Tocumen (El Parador), Panamá, Panama, Panama, NA",
    "lat": 9.0572136776,
    "lng": -79.4338442747,
    "site_type": "retail",
    "order_id_fm": 20466,
    "otc_usd": 500,
    "mrc60_usd": 1700
  },
  {
    "code": "PAN-P11",
    "name": "PANAMA P11 TRANSISTMICA Restaurante",
    "address": "Lat 8.9960071253 Long -79.5277212324 Transístmica con Vía Brasil, Panamá, Panama, Panama, NA",
    "lat": 8.9960071253,
    "lng": -79.5277212324,
    "site_type": "retail",
    "order_id_fm": 20467,
    "otc_usd": 500,
    "mrc60_usd": 1700
  },
  {
    "code": "PAN-P12",
    "name": "PANAMA P12 FERROCARRIL Restaurante",
    "address": "Lat 8.9612376509 Long -79.5557122036 Antiguas Vías del Ferrocarril, Corregimiento de Ancón, Panamá, Panama, Panama, NA",
    "lat": 8.9612376509,
    "lng": -79.5557122036,
    "site_type": "retail",
    "order_id_fm": 20468,
    "otc_usd": 500,
    "mrc60_usd": 1700
  },
  {
    "code": "PAN-P19",
    "name": "PANAMA P19 LAS CUMBRES Restaurante",
    "address": "Lat 9.0689837854 Long -79.5182799036 Milla 8, Centro Comercal Mis Provincias, San Miguelito, Panama, Panama, NA",
    "lat": 9.0689837854,
    "lng": -79.5182799036,
    "site_type": "retail",
    "order_id_fm": 20469,
    "otc_usd": 500,
    "mrc60_usd": 1700
  },
  {
    "code": "PAN-P21",
    "name": "PANAMA P21 AGUADULCE Restaurante",
    "address": "Lat 8.2448927866 Long -80.5667439747 Centro Comercial El Paso Plaza Aguadulce, local 7. Carretera Interamericana, Aguadulce, Cocle, Panama, NA",
    "lat": 8.2448927866,
    "lng": -80.5667439747,
    "site_type": "retail",
    "order_id_fm": 20494,
    "otc_usd": 500,
    "mrc60_usd": 1700
  },
  {
    "code": "PAN-P22",
    "name": "PANAMA P22 EL BOSQUE Restaurante",
    "address": "Lat 9.032546267 Long -79.5139232947 Vía Ricardo J. Alfaro esq. Calle Las Palmeras, Urbanización El Bosque, San Miguelito, Panama, Panama, NA",
    "lat": 9.032546267,
    "lng": -79.5139232947,
    "site_type": "retail",
    "order_id_fm": 20470,
    "otc_usd": 500,
    "mrc60_usd": 1700
  },
  {
    "code": "PAN-P24",
    "name": "PANAMA P24 LA SIESTA Restaurante",
    "address": "Lat 9.0794602764 Long -79.3667884587 Ave. Las Picaderas esquina Ave. Coronel Joaquin Arosemena, La Siesta, Panamá, Panama, Panama, NA",
    "lat": 9.0794602764,
    "lng": -79.3667884587,
    "site_type": "retail",
    "order_id_fm": 20471,
    "otc_usd": 500,
    "mrc60_usd": 1700
  },
  {
    "code": "PAN-P27",
    "name": "PANAMA P27 AGORA CHANIS Restaurante",
    "address": "Lat 9.017466448 Long -79.4835649232 Centro Comercial Plaza Ágora, Chanis, Panama City, Panama, Panama, NA",
    "lat": 9.017466448,
    "lng": -79.4835649232,
    "site_type": "retail",
    "order_id_fm": 20488,
    "otc_usd": 500,
    "mrc60_usd": 1700
  },
  {
    "code": "PAN-P28",
    "name": "PANAMA -P28-Restaurante",
    "address": "Lat: 9.085468277, Long: -79.4451955, Plaza Comercial Villa Lobos, Panama City, Panama Oeste, Panama, 000,",
    "lat": 9.085468277,
    "lng": -79.4451955,
    "site_type": "retail",
    "order_id_fm": 20495,
    "otc_usd": 500,
    "mrc60_usd": 1700
  },
  {
    "code": "PAN-P33",
    "name": "PANAMA P33 ALTA PLAZA MALL Restaurante",
    "address": "Lat 9.0300606729 Long -79.5340900235 Centro Comercial Altaplaza Mall, local 2-107 nivel 200, Panamá, Panama, Panama, NA",
    "lat": 9.0300606729,
    "lng": -79.5340900235,
    "site_type": "retail",
    "order_id_fm": 20497,
    "otc_usd": 500,
    "mrc60_usd": 1700
  },
  {
    "code": "PAN-P39",
    "name": "PANAMA P39 ALBROOK Restaurante",
    "address": "Lat 8.9765296007 Long -79.5508420851 Edificio Gran Terminal de Transporte Albrook, Panama City, Panama, Panama, NA",
    "lat": 8.9765296007,
    "lng": -79.5508420851,
    "site_type": "retail",
    "order_id_fm": 20498,
    "otc_usd": 500,
    "mrc60_usd": 1700
  },
  {
    "code": "PAN-P44",
    "name": "PANAMA P44  24 DE DICIEMBRE Restaurante",
    "address": "Lat 9.103926654 Long -79.3706050235 Vía Tocumen, 24 de diciembre, La Doña, Panamá, Panama, Panama, NA",
    "lat": 9.103926654,
    "lng": -79.3706050235,
    "site_type": "retail",
    "order_id_fm": 20476,
    "otc_usd": 500,
    "mrc60_usd": 1700
  },
  {
    "code": "PAN-P47",
    "name": "PANAMA P47 PEATONAL Restaurante",
    "address": "Lat 8.9586317442 Long -79.5410367324 Peatonal, Ave Central, Panamá, Panama, Panama, NA",
    "lat": 8.9586317442,
    "lng": -79.5410367324,
    "site_type": "retail",
    "order_id_fm": 20477,
    "otc_usd": 500,
    "mrc60_usd": 1700
  },
  {
    "code": "PAN-P51",
    "name": "PANAMA P51 LOS PUEBLOS Restaurante",
    "address": "Lat 9.0497300874 Long -79.4502060036 Centro Comercial Los Pueblos, Panamá, Panama, Panama, NA",
    "lat": 9.0497300874,
    "lng": -79.4502060036,
    "site_type": "retail",
    "order_id_fm": 20499,
    "otc_usd": 500,
    "mrc60_usd": 1700
  },
  {
    "code": "PAN-P52",
    "name": "PANAMA P52 CENTENNIAL PLAZA Restaurante",
    "address": "Lat 9.0296831004 Long -79.5310147324 Plaza Centennial, Vía al Puente Centenario, Panamá, Panama, Panama, NA",
    "lat": 9.0296831004,
    "lng": -79.5310147324,
    "site_type": "retail",
    "order_id_fm": 20478,
    "otc_usd": 500,
    "mrc60_usd": 1700
  },
  {
    "code": "PAN-P59",
    "name": "PANAMA P59 METROMALL Restaurante",
    "address": "Lat 9.0527392902 Long -79.4517645324 Vía Tocumen, Centro Comercial Metromall Local C177, C178, C179, Panamá, Panama, Panama, NA",
    "lat": 9.0527392902,
    "lng": -79.4517645324,
    "site_type": "retail",
    "order_id_fm": 20500,
    "otc_usd": 500,
    "mrc60_usd": 1700
  },
  {
    "code": "PAN-P63",
    "name": "PANAMA P63 VERSALLES Restaurante",
    "address": "Lat 9.0430308917 Long -79.4160669324 Plaza Versalles, Local 1, Panamá, Panama, Panama, NA",
    "lat": 9.0430308917,
    "lng": -79.4160669324,
    "site_type": "retail",
    "order_id_fm": 20462,
    "otc_usd": 500,
    "mrc60_usd": 1700
  },
  {
    "code": "PAN-P67",
    "name": "PANAMA P67 LOS ANDES MALL Restaurante",
    "address": "Lat 9.0521215947 Long -79.5081367716 Centro Comercial Los Andes, Local 030, San Miguelito, Panama, Panama, NA",
    "lat": 9.0521215947,
    "lng": -79.5081367716,
    "site_type": "retail",
    "order_id_fm": 20502,
    "otc_usd": 500,
    "mrc60_usd": 1700
  },
  {
    "code": "PAN-P68",
    "name": "PANAMA P68 VIA CINCUENTENARIO Restaurante",
    "address": "Lat 8.9931971711 Long -79.4991549713 Via Cincuentenario Esq. Av. 4 C Sur, San Francisco, Panamá, Panama, Panama, NA",
    "lat": 8.9931971711,
    "lng": -79.4991549713,
    "site_type": "retail",
    "order_id_fm": 20473,
    "otc_usd": 500,
    "mrc60_usd": 1700
  },
  {
    "code": "PAN-P72",
    "name": "PANAMA P72 TOCUMEN Restaurante",
    "address": "Lat 9.0749476986 Long -79.4014773329 Carretera Panamericana, Ofibodegas Tocumen, Panama City, Panama, Panama, NA",
    "lat": 9.0749476986,
    "lng": -79.4014773329,
    "site_type": "retail",
    "order_id_fm": 20503,
    "otc_usd": 500,
    "mrc60_usd": 1700
  },
  {
    "code": "PAN-P83",
    "name": "PANAMA P83 MEGAMALL Restaurante",
    "address": "Lat 9.0980210498 Long -79.3529411747 Centro Comercial Megamall, Foodcourt local L14 y L15, Panama City, Panama, Panama, NA",
    "lat": 9.0980210498,
    "lng": -79.3529411747,
    "site_type": "retail",
    "order_id_fm": 20482,
    "otc_usd": 500,
    "mrc60_usd": 1700
  },
  {
    "code": "PAN-P86",
    "name": "PANAMA P86 PARQUE LEFEVRE Restaurante",
    "address": "Lat 9.0086097775 Long -79.5063714418 Av. Ernesto T. Lefevre y Calle 82 Este, Panamá, Panama, Panama, NA",
    "lat": 9.0086097775,
    "lng": -79.5063714418,
    "site_type": "retail",
    "order_id_fm": 20506,
    "otc_usd": 500,
    "mrc60_usd": 1700
  },
  {
    "code": "PAN-P90",
    "name": "PANAMA P90 DON BOSCO Restaurante",
    "address": "Lat 9.0630791726 Long -79.4190563605 Urbanización Villa Catalina, Calle Via Domingo Diaz, Airport Plaza, Panamá, Panama, Panama, NA",
    "lat": 9.0630791726,
    "lng": -79.4190563605,
    "site_type": "retail",
    "order_id_fm": 20451,
    "otc_usd": 500,
    "mrc60_usd": 1700
  },
  {
    "code": "PAN-P95",
    "name": "PANAMA P95 MANANITAS Restaurante",
    "address": "Lat 9.0687432929 Long -79.4219395792 Av. Jose Maria Torrijos esq. Calle N, Pedregal, Panamá, Panama, Panama, NA",
    "lat": 9.0687432929,
    "lng": -79.4219395792,
    "site_type": "retail",
    "order_id_fm": 20454,
    "otc_usd": 500,
    "mrc60_usd": 1700
  },
  {
    "code": "PAN-P98",
    "name": "PANAMA P98 JUSTO AROSEMENA  Restaurante",
    "address": "Lat 8.9694506369 Long -79.534490689 Ave. Justo Arosemena esquina Calle 34 Este, Corregimiento de Calidonia, Panama City, Panama, Panama, NA",
    "lat": 8.9694506369,
    "lng": -79.534490689,
    "site_type": "retail",
    "order_id_fm": 20455,
    "otc_usd": 500,
    "mrc60_usd": 1700
  },
  {
    "code": "PAN-PANAMA-PAN-P02-RESTAURANTE",
    "name": "PANAMA PAN-P02-Restaurante",
    "address": "Vía España, Panamá, Panama Oeste, Panama, 1001,",
    "lat": null,
    "lng": null,
    "site_type": "retail",
    "order_id_fm": 20460,
    "otc_usd": 500,
    "mrc60_usd": 1700
  },
  {
    "code": "PAN-PANAMA-P93-LOS-ANDES-MALL-REST",
    "name": "PANAMA, P93 LOS ANDES MALL Restaurante",
    "address": "Lat 9.0510630173 Long -79.508783326 Estacionamientos Centro Comercial Los Andes Mall, San Miguelito, Panama, Panama, NA",
    "lat": 9.0510630173,
    "lng": -79.508783326,
    "site_type": "retail",
    "order_id_fm": 20453,
    "otc_usd": 500,
    "mrc60_usd": 1700
  },
  {
    "code": "PAN-P05K1",
    "name": "PAN-P05K1-Centro de Postre",
    "address": "Lat 9.0071235011 Long -79.5339674459 Dorado Mall, Vía Ricardo J. Alfaro, PANAMÁ, Panama Oeste, Panama, NA",
    "lat": 9.0071235011,
    "lng": -79.5339674459,
    "site_type": "other",
    "order_id_fm": 20408,
    "otc_usd": 500,
    "mrc60_usd": 1700
  },
  {
    "code": "PAN-P05-20711",
    "name": "PAN-P05-Restaurante",
    "address": "Lat 9.0071235011 Long -79.5339674459 Vía Ricardo J. Alfaro, Tumba Muerto, Panamá, Panama, Panama, NA",
    "lat": 9.0071235011,
    "lng": -79.5339674459,
    "site_type": "retail",
    "order_id_fm": 20711,
    "otc_usd": 500,
    "mrc60_usd": 1700
  },
  {
    "code": "PAN-P10K1",
    "name": "PAN-P10K1-Centro de Postre",
    "address": "Lat 9.059242984 Long -79.427215834 Super Xtra Las Acacias, Juan Diaz, PANAMÁ, Panama Oeste, Panama, NA",
    "lat": 9.059242984,
    "lng": -79.427215834,
    "site_type": "other",
    "order_id_fm": 20409,
    "otc_usd": 500,
    "mrc60_usd": 1700
  },
  {
    "code": "PAN-P13K1",
    "name": "PAN-P13K1-Centro de Postre",
    "address": "Lat 8.5146441873 Long -80.3495477361 Super Xtra al lado de Plaza Los Naranjos, Local 11, COCLÉ, Cocle, Panama, NA",
    "lat": 8.5146441873,
    "lng": -80.3495477361,
    "site_type": "other",
    "order_id_fm": 20410,
    "otc_usd": 500,
    "mrc60_usd": 1700
  },
  {
    "code": "PAN-P19K2",
    "name": "PAN-P19K2-Centro de Postre",
    "address": "Lat 9.0757422978 Long -79.5238790019 Supermecardo El Fuerte Villa Zaita, PANAMÁ, Panama Oeste, Panama, NA",
    "lat": 9.0757422978,
    "lng": -79.5238790019,
    "site_type": "other",
    "order_id_fm": 20411,
    "otc_usd": 500,
    "mrc60_usd": 1700
  },
  {
    "code": "PAN-P19K3",
    "name": "PAN-P19K3-Centro de Postre",
    "address": "Lat 9.0651198842 Long -79.5149692074 Frente la Estación del metro, Plaza Comercial San Isidro, Transístmica, PANAMÁ, Panama Oeste, Panama, NA",
    "lat": 9.0651198842,
    "lng": -79.5149692074,
    "site_type": "other",
    "order_id_fm": 20412,
    "otc_usd": 500,
    "mrc60_usd": 1700
  },
  {
    "code": "PAN-P22K1",
    "name": "PAN-P22K1-Centro de Postre",
    "address": "Lat 9.0363961834 Long -79.5055303119 Super Xtra de Pan de Azucar, Centro Comercial Oriental, San Miguelito, PANAMÁ, Panama Oeste, Panama, NA",
    "lat": 9.0363961834,
    "lng": -79.5055303119,
    "site_type": "other",
    "order_id_fm": 20413,
    "otc_usd": 500,
    "mrc60_usd": 1700
  },
  {
    "code": "PAN-P22K2",
    "name": "PAN-P22K2-Centro de Postre",
    "address": "Lat 9.029469254 Long -79.5064940326 Frente al Supermercado El Fuerte, Monte Oscuro San Miguelito, PANAMÁ, Panama Oeste, Panama, NA",
    "lat": 9.029469254,
    "lng": -79.5064940326,
    "site_type": "other",
    "order_id_fm": 20414,
    "otc_usd": 500,
    "mrc60_usd": 1700
  },
  {
    "code": "PAN-P22K3",
    "name": "PAN-P22K3-Centro de Postre",
    "address": "Lat 9.0301434531 Long -79.5064775609 Dentro de la Gran Estación Linea 1, San Miguelito, PANAMÁ, Panama Oeste, Panama, NA",
    "lat": 9.0301434531,
    "lng": -79.5064775609,
    "site_type": "other",
    "order_id_fm": 20416,
    "otc_usd": 500,
    "mrc60_usd": 1700
  },
  {
    "code": "PAN-P33K1",
    "name": "PAN-P33K1-Centro de Postre",
    "address": "Lat 9.0300606729 Long -79.5340900235 Centro Comercial Altaplaza Mall, Piso 1, PANAMÁ, Panama Oeste, Panama, NA",
    "lat": 9.0300606729,
    "lng": -79.5340900235,
    "site_type": "other",
    "order_id_fm": 20417,
    "otc_usd": 500,
    "mrc60_usd": 1700
  },
  {
    "code": "PAN-P37K1",
    "name": "PAN-P37K1-Centro de Postre",
    "address": "Lat 9.0449410127 Long -79.4511551466 Al lado del Super Xtra Los Pueblos, Juan Diaz, PANAMÁ, Panama Oeste, Panama, NA",
    "lat": 9.0449410127,
    "lng": -79.4511551466,
    "site_type": "other",
    "order_id_fm": 20418,
    "otc_usd": 500,
    "mrc60_usd": 1700
  },
  {
    "code": "PAN-P44K1",
    "name": "PAN-P44K1-Centro de Postre",
    "address": "Lat 9.1046432158 Long -79.3698920399 Terminal de Transporte de La Doña, PANAMÁ, Panama Oeste, Panama, NA",
    "lat": 9.1046432158,
    "lng": -79.3698920399,
    "site_type": "other",
    "order_id_fm": 20419,
    "otc_usd": 500,
    "mrc60_usd": 1700
  },
  {
    "code": "PAN-P44K2",
    "name": "PAN-P44K2-Centro de Postre",
    "address": "Lat 9.1037373767 Long -79.3668233444 Centro Comercial, Super Xtra 24 de Diciembre, PANAMÁ, Panama Oeste, Panama, NA",
    "lat": 9.1037373767,
    "lng": -79.3668233444,
    "site_type": "other",
    "order_id_fm": 20420,
    "otc_usd": 500,
    "mrc60_usd": 1700
  },
  {
    "code": "PAN-P57K1",
    "name": "PAN-P57K1-Centro de Postre",
    "address": "Lat 8.5420258487 Long -79.9133876903 Frente al Super 99 de Coronado Mall, PANAMÁ OESTE, Panama Oeste, Panama, NA",
    "lat": 8.5420258487,
    "lng": -79.9133876903,
    "site_type": "other",
    "order_id_fm": 20423,
    "otc_usd": 500,
    "mrc60_usd": 1700
  },
  {
    "code": "PAN-P59K1",
    "name": "PAN-P59K1-Centro de Postre",
    "address": "Lat 9.0527392902 Long -79.4517645324 Vía Tocumen, Centro Comercial Metromall Entrada del Costo Piso 2, PANAMÁ, Panama Oeste, Panama, NA",
    "lat": 9.0527392902,
    "lng": -79.4517645324,
    "site_type": "other",
    "order_id_fm": 20424,
    "otc_usd": 500,
    "mrc60_usd": 1700
  },
  {
    "code": "PAN-P62K1",
    "name": "PAN-P62K1-Centro de Postre",
    "address": "Lat 8.5084803668 Long -80.3618587173 Frente al Super 99, Centro Comercial La Iguana Mall, PANAMÁ OESTE, Cocle, Panama, NA",
    "lat": 8.5084803668,
    "lng": -80.3618587173,
    "site_type": "other",
    "order_id_fm": 20425,
    "otc_usd": 500,
    "mrc60_usd": 1700
  },
  {
    "code": "PAN-P66K1",
    "name": "PAN-P66K1-Centro de Postre",
    "address": "Lat 8.9223148614 Long -79.7052881037 Centro Comercial Westland Mall, Food Court Piso 2, PANAMÁ OESTE, Panama Oeste, Panama, NA",
    "lat": 8.9223148614,
    "lng": -79.7052881037,
    "site_type": "other",
    "order_id_fm": 20426,
    "otc_usd": 500,
    "mrc60_usd": 1700
  },
  {
    "code": "PAN-P67K1",
    "name": "PAN-P67K1-Centro de Postre",
    "address": "Lat 9.0521215947 Long -79.5081367716 Centro Comercial Los Andes Mall, Piso 1 diagonal a Madison, PANAMÁ, Panama Oeste, Panama, NA",
    "lat": 9.0521215947,
    "lng": -79.5081367716,
    "site_type": "other",
    "order_id_fm": 20427,
    "otc_usd": 500,
    "mrc60_usd": 1700
  },
  {
    "code": "PAN-P67K2",
    "name": "PAN-P67K2-Centro de Postre",
    "address": "Lat 9.0521215947 Long -79.5081367716 Centro Comercial Los Andes Mall, Piso 2, PANAMÁ, Panama Oeste, Panama, NA",
    "lat": 9.0521215947,
    "lng": -79.5081367716,
    "site_type": "other",
    "order_id_fm": 20396,
    "otc_usd": 500,
    "mrc60_usd": 1700
  },
  {
    "code": "PAN-P70K1",
    "name": "PAN-P70K1-Centro de Postre",
    "address": "Lat 8.9312131663 Long -79.7017158191 Edificio Plaza Xtra, Carr. Panamericana, Vista Alegre, PANAMÁ OESTE, Panama Oeste, Panama, NA",
    "lat": 8.9312131663,
    "lng": -79.7017158191,
    "site_type": "other",
    "order_id_fm": 20415,
    "otc_usd": 500,
    "mrc60_usd": 1700
  },
  {
    "code": "PAN-P71K2",
    "name": "PAN-P71K2-Centro de Postre",
    "address": "Lat 8.8707993973 Long -79.8003763768 Frente Super Xtra de El Coco, La Chorrera, PANAMÁ OESTE, Panama Oeste, Panama, NA",
    "lat": 8.8707993973,
    "lng": -79.8003763768,
    "site_type": "other",
    "order_id_fm": 20428,
    "otc_usd": 500,
    "mrc60_usd": 1700
  },
  {
    "code": "PAN-P72K1",
    "name": "PAN-P72K1-Centro de Postre",
    "address": "Lat 9.0782517411 Long -79.3995819038 Frente SM Rey, entro Comercial Plaza Las Américas, Via Panamericana, PANAMÁ, Panama Oeste, Panama, NA",
    "lat": 9.0782517411,
    "lng": -79.3995819038,
    "site_type": "other",
    "order_id_fm": 20429,
    "otc_usd": 500,
    "mrc60_usd": 1700
  },
  {
    "code": "PAN-P76K1",
    "name": "PAN-P76K1-Centro de Postre",
    "address": "Lat 9.1091073637 Long -79.5370692692 Minimall La Cabima, Plaza detrás del Restaurante, PANAMÁ, Panama Oeste, Panama, NA",
    "lat": 9.1091073637,
    "lng": -79.5370692692,
    "site_type": "other",
    "order_id_fm": 20430,
    "otc_usd": 500,
    "mrc60_usd": 1700
  },
  {
    "code": "PAN-P76K2",
    "name": "PAN-P76K2-Centro de Postre",
    "address": "Lat 9.1067473247 Long -79.5361769633 Frente a Super 99, La Cabima, Carr Transistmica, PANAMÁ, Panama Oeste, Panama, NA",
    "lat": 9.1067473247,
    "lng": -79.5361769633,
    "site_type": "other",
    "order_id_fm": 20431,
    "otc_usd": 500,
    "mrc60_usd": 1700
  },
  {
    "code": "PAN-P83K1",
    "name": "PAN-P83K1-Centro de Postre",
    "address": "Lat 9.0980210498 Long -79.3529411747 Centro Comercial Megamall, frente a Madison y la Oca Loca, PANAMA, Panama Oeste, Panama, NA",
    "lat": 9.0980210498,
    "lng": -79.3529411747,
    "site_type": "other",
    "order_id_fm": 20432,
    "otc_usd": 500,
    "mrc60_usd": 1700
  },
  {
    "code": "PAN-P83K2",
    "name": "PAN-P83K2-Centro de Postre",
    "address": "Lat 9.0980210498 Long -79.3529411747 Centro Comercial Megamall, Super 99 pasillo principal, PANAMA, Panama Oeste, Panama, NA",
    "lat": 9.0980210498,
    "lng": -79.3529411747,
    "site_type": "other",
    "order_id_fm": 20433,
    "otc_usd": 500,
    "mrc60_usd": 1700
  },
  {
    "code": "PAN-P83K3",
    "name": "PAN-P83K3-Centro de Postre",
    "address": "Lat 9.0980210498 Long -79.3529411747 Centro Comercial Megamall, frente al Costo, PANAMA, Panama Oeste, Panama, NA",
    "lat": 9.0980210498,
    "lng": -79.3529411747,
    "site_type": "other",
    "order_id_fm": 20434,
    "otc_usd": 500,
    "mrc60_usd": 1700
  },
  {
    "code": "PAN-P92K1",
    "name": "PAN-P92K1-Centro de Postre",
    "address": "Lat 8.8929409242 Long -79.7628893644 A un costado del Restaurante, PANAMÁ OESTE, Panama Oeste, Panama, NA",
    "lat": 8.8929409242,
    "lng": -79.7628893644,
    "site_type": "other",
    "order_id_fm": 19003,
    "otc_usd": 500,
    "mrc60_usd": 1700
  },
  {
    "code": "PAN-P92K2",
    "name": "PAN-P92K2-Centro de Postre",
    "address": "Lat 8.8929409242 Long -79.7628893644 Centro Comercial Las Anclas Mall, Planta baja, PANAMÁ OESTE, Panama Oeste, Panama, NA",
    "lat": 8.8929409242,
    "lng": -79.7628893644,
    "site_type": "other",
    "order_id_fm": 19003,
    "otc_usd": 500,
    "mrc60_usd": 1700
  },
  {
    "code": "PAN-P93K1",
    "name": "PAN-P93K1-Centro de Postre",
    "address": "Lat 9.0520559099 Long -79.5092068673 Frente a entrada del Centro Comercial Andes Mall, PANAMÁ, Panama Oeste, Panama, NA",
    "lat": 9.0520559099,
    "lng": -79.5092068673,
    "site_type": "other",
    "order_id_fm": 20397,
    "otc_usd": 500,
    "mrc60_usd": 1700
  },
  {
    "code": "PAN-P93K2",
    "name": "PAN-P93K2-Centro de Postre",
    "address": "Lat 9.0519033472 Long -79.509147817 Frente a Super 99 del Centro Comercial Andes Mall, PANAMÁ, Panama Oeste, Panama, NA",
    "lat": 9.0519033472,
    "lng": -79.509147817,
    "site_type": "other",
    "order_id_fm": 20405,
    "otc_usd": 500,
    "mrc60_usd": 1700
  },
  {
    "code": "PAN-P93K3",
    "name": "PAN-P93K3-Centro de Postre",
    "address": "Lat 9.0527388928 Long -79.5079006706 Frente a Popeyes del Centro Comercial Andes Mall, PANAMÁ, Panama Oeste, Panama, NA",
    "lat": 9.0527388928,
    "lng": -79.5079006706,
    "site_type": "other",
    "order_id_fm": 20406,
    "otc_usd": 500,
    "mrc60_usd": 1700
  }
]